[{"id":"4e8a11fde5faea170a4d231d","name":"Los Tacos Cafe","contact":{},"location":{"address":"164 W Hastings Street","crossStreet":"Cambie","lat":49.282518,"lng":-123.109145,"distance":53,"city":"Vancouver","state":"British Columbia"},"categories":[{"id":"4bf58dd8d48988d151941735","name":"Taco Place","pluralName":"Taco Places","shortName":"Tacos","icon":{"prefix":"https://foursquare.com/img/categories/food/tacos_","sizes":[32,44,64,88,256],"name":".png"},"primary":true}],"verified":false,"stats":{"checkinsCount":1,"usersCount":1,"tipCount":0},"hereNow":{"count":0}},{"id":"4abd2043f964a520978820e3","name":"Tacos Mexico Rico","contact":{"phone":"6046887426","formattedPhone":"(604) 688-7426"},"location":{"address":"309 W Pender St","lat":49.282427,"lng":-123.111105,"distance":111,"postalCode":"V6B 1L8","city":"Vancouver","state":"BC"},"categories":[{"id":"4bf58dd8d48988d1c1941735","name":"Mexican Restaurant","pluralName":"Mexican Restaurants","shortName":"Mexican","icon":{"prefix":"https://foursquare.com/img/categories/food/mexican_","sizes":[32,44,64,88,256],"name":".png"},"primary":true}],"verified":false,"stats":{"checkinsCount":57,"usersCount":36,"tipCount":2},"hereNow":{"count":0}},{"id":"4aa84f03f964a520c15020e3","name":"La Taqueria","contact":{"phone":"6045684406","formattedPhone":"(604) 568-4406","twitter":"LaTaqueriaYVR"},"location":{"address":"322 W. Hastings St.","crossStreet":"at Hamilton St.","lat":49.283117,"lng":-123.110485,"distance":65,"postalCode":"V6B 1K6","city":"Vancouver","state":"Canada"},"categories":[{"id":"4bf58dd8d48988d151941735","name":"Taco Place","pluralName":"Taco Places","shortName":"Tacos","icon":{"prefix":"https://foursquare.com/img/categories/food/tacos_","sizes":[32,44,64,88,256],"name":".png"},"primary":true}],"verified":false,"stats":{"checkinsCount":1012,"usersCount":431,"tipCount":26},"hereNow":{"count":0}},{"id":"4ba40152f964a520e77638e3","name":"Taco Del Mar","contact":{"phone":"6046847071","formattedPhone":"(604) 684-7071"},"location":{"address":"#FF13 - 555 W. Hastings St.","crossStreet":"Richards St.","lat":49.28455298,"lng":-123.11239694000001,"distance":273,"postalCode":"V6B 4N4","city":"Vancouver","state":"BC"},"categories":[{"id":"4bf58dd8d48988d1c1941735","name":"Mexican Restaurant","pluralName":"Mexican Restaurants","shortName":"Mexican","icon":{"prefix":"https://foursquare.com/img/categories/food/mexican_","sizes":[32,44,64,88,256],"name":".png"},"primary":true}],"verified":false,"stats":{"checkinsCount":34,"usersCount":12,"tipCount":1},"hereNow":{"count":0}},{"id":"4b7b12def964a520df4f2fe3","name":"taco time (tinseltown)","contact":{},"location":{"lat":49.280072,"lng":-123.106856,"distance":370},"categories":[],"verified":false,"stats":{"checkinsCount":55,"usersCount":30,"tipCount":2},"hereNow":{"count":0}},{"id":"4e08d9e08877394591eebf90","name":"Cartel Taco","contact":{},"location":{"address":"Dunsmuir and Hamilton","crossStreet":"Hamilton","lat":49.281361,"lng":-123.11253547668457,"distance":263,"city":"Vancouver","state":"British Columbia"},"categories":[{"id":"4bf58dd8d48988d151941735","name":"Taco Place","pluralName":"Taco Places","shortName":"Tacos","icon":{"prefix":"https://foursquare.com/img/categories/food/tacos_","sizes":[32,44,64,88,256],"name":".png"},"primary":true}],"verified":false,"stats":{"checkinsCount":14,"usersCount":13,"tipCount":0},"hereNow":{"count":0}},{"id":"4ac153e2f964a520c89620e3","name":"Taco del Mar","contact":{"phone":"6046772716","formattedPhone":"(604) 677-2716","twitter":"Taco_Del_Mar"},"location":{"address":"545 Granville St.","crossStreet":"btw Dunsmuir & Pender","lat":49.284366,"lng":-123.115413,"distance":448,"postalCode":"V6C 1X6","city":"Vancouver","state":"BC"},"categories":[{"id":"4bf58dd8d48988d1c1941735","name":"Mexican Restaurant","pluralName":"Mexican Restaurants","shortName":"Mexican","icon":{"prefix":"https://foursquare.com/img/categories/food/mexican_","sizes":[32,44,64,88,256],"name":".png"},"primary":true}],"verified":false,"stats":{"checkinsCount":158,"usersCount":86,"tipCount":7},"hereNow":{"count":0}},{"id":"4c4db5e91b8e1b8d0d431026","name":"Taco Bell","contact":{"twitter":"TacoBell"},"location":{"address":"2695 Guildford Town Centre","crossStreet":"in Guildford Town Centre","lat":49.284938,"lng":-123.115134,"distance":459,"postalCode":"V3R 7C1","city":"Surrey","state":"BC"},"categories":[{"id":"4bf58dd8d48988d1c1941735","name":"Mexican Restaurant","pluralName":"Mexican Restaurants","shortName":"Mexican","icon":{"prefix":"https://foursquare.com/img/categories/food/mexican_","sizes":[32,44,64,88,256],"name":".png"},"primary":true}],"verified":false,"stats":{"checkinsCount":4,"usersCount":3,"tipCount":0},"hereNow":{"count":0}},{"id":"4aecadc3f964a5203aca21e3","name":"Taco Time","contact":{"phone":"6044081833","formattedPhone":"(604) 408-1833"},"location":{"address":"777 Dunsmuir St.","lat":49.283283,"lng":-123.117742,"distance":586,"postalCode":"V7Y 1E7","city":"Vancouver","state":"Canada"},"categories":[{"id":"4bf58dd8d48988d16e941735","name":"Fast Food Restaurant","pluralName":"Fast Food Restaurants","shortName":"Fast Food","icon":{"prefix":"https://foursquare.com/img/categories/food/fastfood_","sizes":[32,44,64,88,256],"name":".png"},"primary":true}],"verified":false,"stats":{"checkinsCount":43,"usersCount":29,"tipCount":1},"hereNow":{"count":0}},{"id":"4c658908b80abe9a947fcae5","name":"Taco time","contact":{},"location":{"address":"200 Burrard Street","lat":49.288124,"lng":-123.1155127,"distance":724,"city":"Vancouver","state":"BC"},"categories":[{"id":"4bf58dd8d48988d114941735","name":"Food Court","pluralName":"Food Courts","shortName":"Food Court","icon":{"prefix":"https://foursquare.com/img/categories/food/foodcourt_","sizes":[32,44,64,88,256],"name":".png"},"primary":true}],"verified":false,"stats":{"checkinsCount":17,"usersCount":12,"tipCount":0},"hereNow":{"count":0}},{"id":"4da60d3a5da3e8486b7bed03","name":"Ursu Korean BBQ Taco","contact":{},"location":{"address":"400 W Georgia St","crossStreet":"Richards St","lat":49.280456,"lng":-123.115938,"distance":524,"city":"Vancouver","state":"BC"},"categories":[{"id":"4bf58dd8d48988d1cb941735","name":"Food Truck","pluralName":"Food Trucks","shortName":"Food Truck / Street Food","icon":{"prefix":"https://foursquare.com/img/categories/food/streetfood_","sizes":[32,44,64,88,256],"name":".png"},"primary":true}],"verified":false,"stats":{"checkinsCount":27,"usersCount":25,"tipCount":0},"hereNow":{"count":0}},{"id":"4cb8aa2b86dd95214d9eaae6","name":"Cartel Taco","contact":{},"location":{"address":"Burrard & Georgia","crossStreet":"Hamilton and Dunsmuir","lat":49.2843986,"lng":-123.1210343,"distance":841,"city":"Vancouver","state":"BC"},"categories":[{"id":"4bf58dd8d48988d1cb941735","name":"Food Truck","pluralName":"Food Trucks","shortName":"Food Truck / Street Food","icon":{"prefix":"https://foursquare.com/img/categories/food/streetfood_","sizes":[32,44,64,88,256],"name":".png"},"primary":true}],"verified":false,"stats":{"checkinsCount":37,"usersCount":26,"tipCount":1},"hereNow":{"count":0}},{"id":"4cbe0931ca4aa1cdd8e111b4","name":"Padre Taco","contact":{},"location":{"lat":49.286914,"lng":-123.119749,"distance":859},"categories":[{"id":"4bf58dd8d48988d1c1941735","name":"Mexican Restaurant","pluralName":"Mexican Restaurants","shortName":"Mexican","icon":{"prefix":"https://foursquare.com/img/categories/food/mexican_","sizes":[32,44,64,88,256],"name":".png"},"primary":true}],"verified":false,"stats":{"checkinsCount":26,"usersCount":2,"tipCount":1},"hereNow":{"count":0}},{"id":"4e814c956da173f429b1fbde","name":"Chronic Tacos","contact":{},"location":{"lat":49.27947,"lng":-123.122682,"distance":1014},"categories":[],"verified":false,"stats":{"checkinsCount":77,"usersCount":51,"tipCount":0},"hereNow":{"count":0}},{"id":"4ce1b62d69136dcb750aebe6","name":"Arturo's Mexico To Go","contact":{},"location":{"address":"W Cordova St","crossStreet":"at Howe St","lat":49.28647921987056,"lng":-123.11354398727417,"distance":492,"city":"Vancouver","state":"BC"},"categories":[{"id":"4bf58dd8d48988d1cb941735","name":"Food Truck","pluralName":"Food Trucks","shortName":"Food Truck / Street Food","icon":{"prefix":"https://foursquare.com/img/categories/food/streetfood_","sizes":[32,44,64,88,256],"name":".png"},"primary":true}],"verified":false,"stats":{"checkinsCount":125,"usersCount":67,"tipCount":4},"hereNow":{"count":0}},{"id":"4c01bfdef8492d7fd9675ffa","name":"Taco Con Chile","contact":{},"location":{"lat":49.277464745102726,"lng":-123.13369274139404,"distance":1842},"categories":[],"verified":false,"stats":{"checkinsCount":22,"usersCount":7,"tipCount":0},"hereNow":{"count":0}},{"id":"4ad0e900f964a52004db20e3","name":"El Taco","contact":{},"location":{"address":"738 Davie","lat":49.277636,"lng":-123.126782,"distance":1368,"city":"Vancouver","state":"Canada"},"categories":[{"id":"4bf58dd8d48988d1c1941735","name":"Mexican Restaurant","pluralName":"Mexican Restaurants","shortName":"Mexican","icon":{"prefix":"https://foursquare.com/img/categories/food/mexican_","sizes":[32,44,64,88,256],"name":".png"},"primary":true}],"verified":false,"stats":{"checkinsCount":143,"usersCount":93,"tipCount":3},"hereNow":{"count":0}},{"id":"4e3a10927d8b90abc3238e8f","name":"11th Balcony Tacos","contact":{},"location":{"lat":49.27499,"lng":-123.127348,"distance":1550,"city":"Vancouver","state":"British Columbia"},"categories":[{"id":"4bf58dd8d48988d16e941735","name":"Fast Food Restaurant","pluralName":"Fast Food Restaurants","shortName":"Fast Food","icon":{"prefix":"https://foursquare.com/img/categories/food/fastfood_","sizes":[32,44,64,88,256],"name":".png"},"primary":true}],"verified":false,"stats":{"checkinsCount":19,"usersCount":3,"tipCount":0},"hereNow":{"count":0}},{"id":"4df3482945dd4e26933ffde7","name":"Ricardo's Taco Hut","contact":{},"location":{"lat":49.283962,"lng":-123.12994,"distance":1475,"city":"Vancouver","state":"BC"},"categories":[],"verified":false,"stats":{"checkinsCount":2,"usersCount":1,"tipCount":0},"hereNow":{"count":0}},{"id":"4c7d7583d598a0930cf3c262","name":"Chronic Tacos","contact":{"phone":"9057098226","formattedPhone":"(905) 709-8226"},"location":{"address":"382 W Broadway","crossStreet":"Yukon St","lat":49.2631654,"lng":-123.112356,"distance":2197,"postalCode":"V5Y 1R2","city":"Vancouver","state":"BC","country":"Canada"},"categories":[{"id":"4bf58dd8d48988d1c1941735","name":"Mexican Restaurant","pluralName":"Mexican Restaurants","shortName":"Mexican","icon":{"prefix":"https://foursquare.com/img/categories/food/mexican_","sizes":[32,44,64,88,256],"name":".png"},"primary":true}],"verified":false,"stats":{"checkinsCount":916,"usersCount":459,"tipCount":14},"hereNow":{"count":0}},{"id":"4aac106ef964a520045c20e3","name":"Taco Shack","contact":{},"location":{"address":"1937 Cornwall Ave","crossStreet":"Walnut","lat":49.272548,"lng":-123.148469,"distance":3039,"city":"Vancouver","state":"Canada","country":"Canada"},"categories":[{"id":"4bf58dd8d48988d151941735","name":"Taco Place","pluralName":"Taco Places","shortName":"Tacos","icon":{"prefix":"https://foursquare.com/img/categories/food/tacos_","sizes":[32,44,64,88,256],"name":".png"},"primary":true}],"verified":false,"stats":{"checkinsCount":174,"usersCount":93,"tipCount":3},"hereNow":{"count":0}},{"id":"4b3d27e8f964a520218f25e3","name":"the taco shop","contact":{},"location":{"address":"Cornwall","crossStreet":"Cypress","lat":49.272678,"lng":-123.14855,"distance":3039,"city":"Vancouver","state":"Canada"},"categories":[],"verified":false,"stats":{"checkinsCount":1,"usersCount":1,"tipCount":0},"hereNow":{"count":0}},{"id":"4e223f06d4c0d32590f80ff4","name":"La Taqueria Pinche Taco Shop","contact":{"twitter":"lataqueriayvr"},"location":{"address":"2549 Cambie St","crossStreet":"at W Broadway","lat":49.263158,"lng":-123.114678,"distance":2219,"postalCode":"V5Z 3Y6","city":"Vancouver","state":"BC"},"categories":[{"id":"4bf58dd8d48988d1c1941735","name":"Mexican Restaurant","pluralName":"Mexican Restaurants","shortName":"Mexican","icon":{"prefix":"https://foursquare.com/img/categories/food/mexican_","sizes":[32,44,64,88,256],"name":".png"},"primary":true}],"verified":false,"stats":{"checkinsCount":393,"usersCount":236,"tipCount":0},"hereNow":{"count":0}},{"id":"4d82344021c0b60cabb3e86f","name":"Chronic Taco Loo","contact":{"twitter":"ChronicTacosVan"},"location":{"address":"Back left hand corner of Chronic Tacos","lat":49.263019,"lng":-123.112626,"distance":2215,"city":"Vancouver","state":"BC"},"categories":[{"id":"4bf58dd8d48988d12d941735","name":"Monument or Landmark","pluralName":"Monuments or Landmarks","shortName":"Monument / Landmark","icon":{"prefix":"https://foursquare.com/img/categories/building/default_","sizes":[32,44,64,88,256],"name":".png"},"primary":true}],"verified":false,"stats":{"checkinsCount":4,"usersCount":3,"tipCount":0},"hereNow":{"count":0}},{"id":"4db33ac56a23c31a02fdded0","name":"Off The Wagon Taco Truck","contact":{},"location":{"lat":49.262355,"lng":-123.105606,"distance":2298,"city":"Vancouver","state":"BC"},"categories":[{"id":"4bf58dd8d48988d1cb941735","name":"Food Truck","pluralName":"Food Trucks","shortName":"Food Truck / Street Food","icon":{"prefix":"https://foursquare.com/img/categories/food/streetfood_","sizes":[32,44,64,88,256],"name":".png"},"primary":true}],"verified":false,"stats":{"checkinsCount":11,"usersCount":9,"tipCount":0},"hereNow":{"count":0}},{"id":"4dfbede1183853f2cb4edc9d","name":"Chronic Tacos","contact":{"phone":"6047398226","formattedPhone":"(604) 739-8226"},"location":{"address":"1812 W 4th Ave.","crossStreet":"Burrard St.","lat":49.268054,"lng":-123.146033,"distance":3109,"postalCode":"V6J 1M3","city":"Vancouver","state":"BC","country":"Canada"},"categories":[{"id":"4bf58dd8d48988d151941735","name":"Taco Place","pluralName":"Taco Places","shortName":"Tacos","icon":{"prefix":"https://foursquare.com/img/categories/food/tacos_","sizes":[32,44,64,88,256],"name":".png"},"primary":true}],"verified":false,"stats":{"checkinsCount":132,"usersCount":73,"tipCount":0},"hereNow":{"count":0}},{"id":"4e49ece752b11cf651ac95e2","name":"Pink Taco Apt","contact":{},"location":{"lat":49.260161,"lng":-123.127023,"distance":2820,"city":"Vancouver","state":"British Columbia"},"categories":[{"id":"4bf58dd8d48988d130941735","name":"Building","pluralName":"Buildings","shortName":"Other - Buildings","icon":{"prefix":"https://foursquare.com/img/categories/building/default_","sizes":[32,44,64,88,256],"name":".png"},"primary":true}],"verified":false,"stats":{"checkinsCount":0,"usersCount":0,"tipCount":0},"hereNow":{"count":0}},{"id":"4e25ec17fa76a490d3bfa28e","name":"Taco Time (Capitano Mall Food Court)","contact":{},"location":{"address":"935 Marine Drive","crossStreet":"McKay","lat":49.321593,"lng":-123.10121,"distance":4358,"city":"North Vancouver"},"categories":[{"id":"4bf58dd8d48988d1c1941735","name":"Mexican Restaurant","pluralName":"Mexican Restaurants","shortName":"Mexican","icon":{"prefix":"https://foursquare.com/img/categories/food/mexican_","sizes":[32,44,64,88,256],"name":".png"},"primary":true}],"verified":false,"stats":{"checkinsCount":18,"usersCount":5,"tipCount":0},"hereNow":{"count":0}},{"id":"4c0dd01ab1b676b0a535e186","name":"Space Taco","contact":{},"location":{"lat":49.258710701048656,"lng":-123.143922642192,"distance":3659,"city":"Vancouver","state":"BC"},"categories":[{"id":"4bf58dd8d48988d103941735","name":"Home","pluralName":"Homes","shortName":"Home","icon":{"prefix":"https://foursquare.com/img/categories/building/home_","sizes":[32,44,64,88,256],"name":".png"},"primary":true}],"verified":false,"stats":{"checkinsCount":10,"usersCount":4,"tipCount":0},"hereNow":{"count":0}},{"id":"4aa9fb9cf964a5208e5520e3","name":"Lolita's South of the Border Cantina","contact":{},"location":{"address":"1326 Davie Street","lat":49.283052,"lng":-123.135507,"distance":1874,"postalCode":"V6E1N6","city":"Vancouver","state":"BC","country":"Canada"},"categories":[{"id":"4bf58dd8d48988d1c1941735","name":"Mexican Restaurant","pluralName":"Mexican Restaurants","shortName":"Mexican","icon":{"prefix":"https://foursquare.com/img/categories/food/mexican_","sizes":[32,44,64,88,256],"name":".png"},"primary":true}],"verified":false,"stats":{"checkinsCount":433,"usersCount":242,"tipCount":14},"hereNow":{"count":0}}]
