{"meta":{"code":200},"response":{"venues":[{"id":"4aa7fe08f964a520914e20e3","name":"Nuba","contact":{"phone":"6046881655","formattedPhone":"(604) 688-1655","twitter":"nubatown"},"location":{"address":"207B W Hastings St","crossStreet":"at Cambie St","lat":49.282867,"lng":-123.109587,"distance":8,"city":"Vancouver","state":"BC","country":"Canada"},"categories":[{"id":"4bf58dd8d48988d115941735","name":"Middle Eastern Restaurant","pluralName":"Middle Eastern Restaurants","shortName":"Middle Eastern","icon":"https://foursquare.com/img/categories/food/middleeastern.png","parents":["Food"],"primary":true}],"verified":false,"stats":{"checkinsCount":1209,"usersCount":610,"tipCount":21},"hereNow":{"count":0}}, {"id":"4cc72e8b01fb236a8d70bbba","name":"Meat & Bread","contact":{"phone":"6045669003","formattedPhone":"(604) 566-9003","twitter":"1meatandbread"},"location":{"address":"370 Cambie St","crossStreet":"Hastings St","lat":49.2825799,"lng":-123.1095264,"distance":30,"postalCode":"V6B 2N4","city":"Vancouver","state":"BC","country":"Canada"},"categories":[{"id":"4bf58dd8d48988d1c5941735","name":"Sandwich Place","pluralName":"Sandwich Places","shortName":"Sandwiches","icon":"https://foursquare.com/img/categories/food/sandwiches.png","parents":["Food"],"primary":true}],"verified":false,"stats":{"checkinsCount":997,"usersCount":578,"tipCount":18},"hereNow":{"count":0}},{"id":"4d9b41359298b1f7635b5338","name":"Revolver Coffee","contact":{"twitter":"revolver_coffee"},"location":{"address":"325 Cambie St","crossStreet":"btwn Hastings & Cordova","lat":49.283161,"lng":-123.109279,"distance":47,"city":"Vancouver","state":"BC"},"categories":[{"id":"4bf58dd8d48988d16d941735","name":"Caf\xC3\xA9","pluralName":"Caf\xC3\xA9s","shortName":"Caf\xC3\xA9","icon":"https://foursquare.com/img/categories/food/cafe.png","parents":["Food"],"primary":true}],"verified":false,"stats":{"checkinsCount":192,"usersCount":85,"tipCount":0},"hereNow":{"count":2}}]}}

